[
  {
    "text": "0xBlob",
    "region": "APAC",
    "latitude": 37.5503,
    "longitude": 126.9971,
    "name": "Korea",
    "city": "Seoul",
    "website": "https://www.blobcourse.com/",
    "twitter": "https://twitter.com/BlobCourse",
    "logo": "Community%20Globe%20-%20Sheet1%20db0444fc12cd473fa31eb68dd6b6e6fd/0xblob.jpg",
    "pictures": "0xblob.jpg",
    "visible": "No"
  },
  {
    "text": "Africa Blockchain Club - Universel",
    "region": "Africa",
    "latitude": -26.2056,
    "longitude": 28.0337,
    "name": "South Africa",
    "city": "Johannesburg",
    "website": "https://www.linkedin.com/company/africa-s-blockchain-club/",
    "twitter": "https://x.com/africasblock",
    "logo": "Community%20Globe%20-%20Sheet1%20db0444fc12cd473fa31eb68dd6b6e6fd/abcafrica.jpg",
    "pictures": "abcafrica.jpg",
    "visible": "No"
  },
  {
    "text": "Akindo",
    "region": "APAC",
    "latitude": 35.6895,
    "longitude": 139.6917,
    "name": "Japan",
    "city": "Tokyo",
    "website": "https://www.wavehack.global/",
    "twitter": "https://x.com/akindo_io",
    "logo": "Community%20Globe%20-%20Sheet1%20db0444fc12cd473fa31eb68dd6b6e6fd/akindo.jpg",
    "pictures": "akindo.jpg",
    "visible": "No"
  },
  {
    "text": "ATX Dao",
    "region": "North America",
    "latitude": 30.2672,
    "longitude": -97.7431,
    "name": "USA",
    "city": "Austin",
    "website": "https://www.atxdao.com/",
    "twitter": "https://x.com/ATXDAO",
    "logo": "Community%20Globe%20-%20Sheet1%20db0444fc12cd473fa31eb68dd6b6e6fd/atx.jpg",
    "pictures": "atx.jpg",
    "visible": "No"
  },
  {
    "text": "bewater",
    "region": "APAC",
    "latitude": 22.3193,
    "longitude": 114.1694,
    "name": "Hong Kong",
    "city": "Hong Kong",
    "website": "https://bewater.xyz/",
    "twitter": "https://twitter.com/bewaterofficial",
    "logo": "Community%20Globe%20-%20Sheet1%20db0444fc12cd473fa31eb68dd6b6e6fd/bewater.jpg",
    "pictures": "atx.jpg",
    "visible": "No"
  },
  {
    "text": "biteye",
    "region": "APAC",
    "latitude": 1.3521,
    "longitude": 103.8198,
    "name": "Singapore",
    "city": "Singapore",
    "website": "https://biteye.info/",
    "twitter": "https://x.com/BiteyeCN",
    "logo": "Community%20Globe%20-%20Sheet1%20db0444fc12cd473fa31eb68dd6b6e6fd/biteye.jpg",
    "pictures": "biteye.jpg",
    "visible": "No"
  },
  {
    "text": "Blockchain at Berkeley",
    "region": "North America",
    "latitude": 37.8715,
    "longitude": -122.273,
    "name": "USA",
    "city": "Berkeley",
    "website": "https://blockchain.studentorg.berkeley.edu/",
    "twitter": "https://twitter.com/CalBlockchain",
    "logo": "Community%20Globe%20-%20Sheet1%20db0444fc12cd473fa31eb68dd6b6e6fd/berkeley.jpg",
    "pictures": "berkeley.jpg",
    "visible": "No"
  },
  {
    "text": "Borderless Africa",
    "region": "Africa",
    "latitude": -8.7832,
    "longitude": 34.5085,
    "name": "Africa",
    "city": null,
    "website": "https://borderless.africa/",
    "twitter": "https://x.com/borderlessaf",
    "logo": "Community%20Globe%20-%20Sheet1%20db0444fc12cd473fa31eb68dd6b6e6fd/borderless.jpg",
    "pictures": "borderless.jpg",
    "visible": "No"
  },
  {
    "text": "Buidlers",
    "region": "LATAM",
    "latitude": -34.6037,
    "longitude": -58.3816,
    "name": "Argentina",
    "city": "Buenos Aires",
    "website": null,
    "twitter": "https://x.com/Buidlerstech",
    "logo": "Community%20Globe%20-%20Sheet1%20db0444fc12cd473fa31eb68dd6b6e6fd/buidlers.jpg",
    "pictures": "buidlers.jpg",
    "visible": "No"
  },
  {
    "text": "Cryptist ",
    "region": "ASIA",
    "latitude": 41.0082,
    "longitude": 28.9784,
    "name": "Turkey",
    "city": "Istanbul",
    "website": "https://cryptist.org/",
    "twitter": "https://x.com/cryptistanbul",
    "logo": "Community%20Globe%20-%20Sheet1%20db0444fc12cd473fa31eb68dd6b6e6fd/cryptist.jpg",
    "pictures": "cryptist.jpg",
    "visible": "No"
  },
  {
    "text": "Espacio Cripto",
    "region": "LATAM",
    "latitude": 19.4326,
    "longitude": -99.1332,
    "name": "Mexico",
    "city": "CDMX",
    "website": "https://bento.me/espaciocripto",
    "twitter": "https://twitter.com/EspacioCripto",
    "logo": "Community%20Globe%20-%20Sheet1%20db0444fc12cd473fa31eb68dd6b6e6fd/espaiocripto.jpg",
    "pictures": "espaiocripto.jpg",
    "visible": "No"
  },
  {
    "text": "ETH Barcelona",
    "region": "Europe",
    "latitude": 41.3874,
    "longitude": 2.1686,
    "name": "Spain",
    "city": "Barcelona",
    "website": "https://linktr.ee/ethbarcelona",
    "twitter": "https://twitter.com/eth_barcelona",
    "logo": "Community%20Globe%20-%20Sheet1%20db0444fc12cd473fa31eb68dd6b6e6fd/barcelona.jpg",
    "pictures": "barcelona.jpg",
    "visible": "No"
  },
  {
    "text": "ETH Beijing",
    "region": "APAC",
    "latitude": 39.9042,
    "longitude": 116.4074,
    "name": "China",
    "city": "Beijing",
    "website": "https://www.ethbeijing.xyz/",
    "twitter": null,
    "logo": "Community%20Globe%20-%20Sheet1%20db0444fc12cd473fa31eb68dd6b6e6fd/Screenshot_2024-08-20_at_10.03.45_PM.png",
    "pictures": "ethbeijing.png",
    "visible": "No"
  },
  {
    "text": "ETH Costa Rica",
    "region": "LATAM",
    "latitude": 37.3387,
    "longitude": -121.8853,
    "name": "Costa Rica",
    "city": "San Jose",
    "website": "https://ethereum.cr/",
    "twitter": "https://x.com/EthereumCR",
    "logo": "Community%20Globe%20-%20Sheet1%20db0444fc12cd473fa31eb68dd6b6e6fd/CostaRica.jpg",
    "pictures": "CostaRica.jpg",
    "visible": "No"
  },
  {
    "text": "CryptoCanal",
    "region": "Europe",
    "latitude": 52.3676,
    "longitude": 4.9041,
    "name": "Netherlands",
    "city": "Amsterdam",
    "website": "https://www.ethdam.com/",
    "twitter": "https://x.com/cryptocanal",
    "logo": "Community%20Globe%20-%20Sheet1%20db0444fc12cd473fa31eb68dd6b6e6fd/cryptocanal.jpg",
    "pictures": "cryptocanal.jpg",
    "visible": "No"
  },
  {
    "text": "ETH Denver",
    "region": "North America",
    "latitude": 39.7392,
    "longitude": -104.9903,
    "name": "USA",
    "city": "Denver",
    "website": "https://www.ethdenver.com/",
    "twitter": "https://twitter.com/EthereumDenver",
    "logo": "Community%20Globe%20-%20Sheet1%20db0444fc12cd473fa31eb68dd6b6e6fd/ethdenver.jpg",
    "pictures": "ethdenver.jpg",
    "visible": "No"
  },
  {
    "text": "ETH Gathering",
    "region": "Europe",
    "latitude": 41.3874,
    "longitude": 2.1686,
    "name": "Spain",
    "city": "Barcelona",
    "website": null,
    "twitter": "https://twitter.com/ethgathering",
    "logo": "Community%20Globe%20-%20Sheet1%20db0444fc12cd473fa31eb68dd6b6e6fd/ethgathering.jpg",
    "pictures": "ethgathering.jpg",
    "visible": "No"
  },
  {
    "text": "Eth Japan",
    "region": "APAC",
    "latitude": 35.6895,
    "longitude": 139.6917,
    "name": "Japan",
    "city": "Tokyo",
    "website": "https://www.ethtokyo.com/",
    "twitter": "https://x.com/Ethereum_JP",
    "logo": "Community%20Globe%20-%20Sheet1%20db0444fc12cd473fa31eb68dd6b6e6fd/japan.jpg",
    "pictures": "japan.jpg",
    "visible": "No"
  },
  {
    "text": "ETH Lima",
    "region": "LATAM",
    "latitude": -12.0467,
    "longitude": -77.0431,
    "name": "Peru",
    "city": "Lima",
    "website": "https://ethlima.org/",
    "twitter": "https://x.com/EthereumLima",
    "logo": "Community%20Globe%20-%20Sheet1%20db0444fc12cd473fa31eb68dd6b6e6fd/lima.jpg",
    "pictures": "lima.jpg",
    "visible": "No"
  },
  {
    "text": "ETH Pad Thai",
    "region": "SEA",
    "latitude": 15.87,
    "longitude": 100.9925,
    "name": "Thailand",
    "city": null,
    "website": "https://ethpadthai.org/",
    "twitter": "https://x.com/ethpadthai",
    "logo": "Community%20Globe%20-%20Sheet1%20db0444fc12cd473fa31eb68dd6b6e6fd/padthai.jpg",
    "pictures": "padthai.jpg",
    "visible": "No"
  },
  {
    "text": "ETH Prague",
    "region": "Europe",
    "latitude": 50.0755,
    "longitude": 14.4378,
    "name": "Czech Republic",
    "city": "Prague",
    "website": "https://ethprague.com/",
    "twitter": "https://x.com/EthPrague",
    "logo": "Community%20Globe%20-%20Sheet1%20db0444fc12cd473fa31eb68dd6b6e6fd/prague.jpg",
    "pictures": "prague.jpg",
    "visible": "No"
  },
  {
    "text": "Eth Samba",
    "region": "LATAM",
    "latitude": -14.235,
    "longitude": -51.9253,
    "name": "Brazil",
    "city": null,
    "website": "https://linktr.ee/ethsamba",
    "twitter": "https://x.com/ethsamba",
    "logo": "Community%20Globe%20-%20Sheet1%20db0444fc12cd473fa31eb68dd6b6e6fd/ethsamba.jpg",
    "pictures": "ethsamba.jpg",
    "visible": "No"
  },
  {
    "text": "ETH Taipei",
    "region": "APAC",
    "latitude": 25.033,
    "longitude": 121.5654,
    "name": "Taiwan",
    "city": "Taipei",
    "website": "https://ethtaipei.org/",
    "twitter": "https://x.com/EthTaipei",
    "logo": "Community%20Globe%20-%20Sheet1%20db0444fc12cd473fa31eb68dd6b6e6fd/taipei.jpg",
    "pictures": "taipei.jpg",
    "visible": "No"
  },
  {
    "text": "Eth Volcano",
    "region": "LATAM",
    "latitude": 13.7942,
    "longitude": -88.8965,
    "name": "El Salvador",
    "city": null,
    "website": "https://t.me/ETHVolcanoCommunity",
    "twitter": "https://x.com/ethvolcano_",
    "logo": "Community%20Globe%20-%20Sheet1%20db0444fc12cd473fa31eb68dd6b6e6fd/elsalva.jpg",
    "pictures": "elsalva.jpg",
    "visible": "No"
  },
  {
    "text": "EthBerlin",
    "region": "Europe",
    "latitude": 52.52,
    "longitude": 13.405,
    "name": "Germany",
    "city": "Berlin",
    "website": null,
    "twitter": "https://x.com/ETHBerlin",
    "logo": "Community%20Globe%20-%20Sheet1%20db0444fc12cd473fa31eb68dd6b6e6fd/Berlin.jpg",
    "pictures": "Berlin.jpg",
    "visible": "No"
  },
  {
    "text": "Ethereum Bogota",
    "region": "LATAM",
    "latitude": 4.5709,
    "longitude": -74.2973,
    "name": "Colombia",
    "city": null,
    "website": null,
    "twitter": "https://x.com/ethcobogota",
    "logo": "Community%20Globe%20-%20Sheet1%20db0444fc12cd473fa31eb68dd6b6e6fd/bogota.jpg",
    "pictures": "bogota.jpg",
    "visible": "No"
  },
  {
    "text": "Ethereum Bolivia",
    "region": "LATAM",
    "latitude": -16.2902,
    "longitude": -63.5887,
    "name": "Bolivia",
    "city": null,
    "website": "https://linktr.ee/ethbolivia",
    "twitter": "https://x.com/EthereumBo",
    "logo": "Community%20Globe%20-%20Sheet1%20db0444fc12cd473fa31eb68dd6b6e6fd/bolivia.jpg",
    "pictures": "bolivia.jpg",
    "visible": "No"
  },
  {
    "text": "Ethereum Guatemala",
    "region": "LATAM",
    "latitude": 15.7835,
    "longitude": -90.2308,
    "name": "Guatemala",
    "city": null,
    "website": "https://linktr.ee/ethereumgt",
    "twitter": "https://x.com/ethereumgt",
    "logo": "Community%20Globe%20-%20Sheet1%20db0444fc12cd473fa31eb68dd6b6e6fd/guate.jpg",
    "pictures": "guate.jpg",
    "visible": "No"
  },
  {
    "text": "Ethereum Tegucigalpa",
    "region": "LATAM",
    "latitude": 15.2,
    "longitude": -86.2419,
    "name": "Honduras",
    "city": null,
    "website": "https://t.co/VzTPJyV2Fh",
    "twitter": "https://x.com/ethereumTGU_",
    "logo": "Community%20Globe%20-%20Sheet1%20db0444fc12cd473fa31eb68dd6b6e6fd/TGU.jpg",
    "pictures": "TGU.jpg",
    "visible": "No"
  },
  {
    "text": "Ethereum Uruguay",
    "region": "LATAM",
    "latitude": -32.5228,
    "longitude": -55.7658,
    "name": "Uruguay",
    "city": null,
    "website": "https://www.ethereumuruguay.org/",
    "twitter": "https://x.com/EthereumUruguay",
    "logo": "Community%20Globe%20-%20Sheet1%20db0444fc12cd473fa31eb68dd6b6e6fd/uruguay.jpg",
    "pictures": "uruguay.jpg",
    "visible": "No"
  },
  {
    "text": "EthKL",
    "region": "SEA",
    "latitude": 4.2105,
    "longitude": 101.9758,
    "name": "Malaysia",
    "city": null,
    "website": "https://www.ethkl.org/",
    "twitter": "https://twitter.com/ETHKL1",
    "logo": "Community%20Globe%20-%20Sheet1%20db0444fc12cd473fa31eb68dd6b6e6fd/KL.jpg",
    "pictures": "KL.jpg",
    "visible": "No"
  },
  {
    "text": "ETHKyiv",
    "region": "Europe",
    "latitude": 48.3794,
    "longitude": 31.1656,
    "name": "Ukraine",
    "city": null,
    "website": "https://www.ethkyiv.org/",
    "twitter": "https://x.com/EthKyiv_",
    "logo": "Community%20Globe%20-%20Sheet1%20db0444fc12cd473fa31eb68dd6b6e6fd/kyiv.jpg",
    "pictures": "kyiv.jpg",
    "visible": "No"
  },
  {
    "text": "EthWarsaw",
    "region": "Europe",
    "latitude": 51.9194,
    "longitude": 19.1451,
    "name": "Poland",
    "city": null,
    "website": "https://www.ethwarsaw.dev/",
    "twitter": "https://x.com/ETHWarsaw",
    "logo": "Community%20Globe%20-%20Sheet1%20db0444fc12cd473fa31eb68dd6b6e6fd/warsaw.jpg",
    "pictures": "warsaw.jpg",
    "visible": "No"
  },
  {
    "text": "FranklinDAO / Penn Blockchain",
    "region": "North America",
    "latitude": 41.2033,
    "longitude": -77.1945,
    "name": "USA",
    "city": "Pennsylvania",
    "website": "https://www.franklindao.xyz/",
    "twitter": "https://x.com/franklin_dao",
    "logo": "Community%20Globe%20-%20Sheet1%20db0444fc12cd473fa31eb68dd6b6e6fd/franklin.jpg",
    "pictures": "franklin.jpg",
    "visible": "No"
  },
  {
    "text": "ITU Blockchain",
    "region": "APAC, Europe",
    "latitude": 41.0082,
    "longitude": 28.9784,
    "name": "Turkey",
    "city": "Istanbul",
    "website": "https://www.itublockchain.com/",
    "twitter": "https://x.com/ITUblockchain",
    "logo": "Community%20Globe%20-%20Sheet1%20db0444fc12cd473fa31eb68dd6b6e6fd/itu.png",
    "pictures": "itu.png",
    "visible": "No"
  },
  {
    "text": "Nonce ",
    "region": "APAC",
    "latitude": 35.9078,
    "longitude": 127.7669,
    "name": "Korea",
    "city": null,
    "website": "https://nonce.community/lighthouse",
    "twitter": "https://x.com/nonce_community",
    "logo": "Community%20Globe%20-%20Sheet1%20db0444fc12cd473fa31eb68dd6b6e6fd/nonce.jpg",
    "pictures": "nonce.jpg",
    "visible": "No"
  },
  {
    "text": "Stanford Blockchain",
    "region": "North America",
    "latitude": 37.7749,
    "longitude": -122.4194,
    "name": "USA",
    "city": "San Francisco",
    "website": "https://blockchain.stanford.edu/",
    "twitter": "https://twitter.com/StanfordCrypto",
    "logo": "Community%20Globe%20-%20Sheet1%20db0444fc12cd473fa31eb68dd6b6e6fd/sbc.jpg",
    "pictures": "sbc.jpg",
    "visible": "No"
  },
  {
    "text": "TUM Blockchain Club",
    "region": "Europe",
    "latitude": 48.1351,
    "longitude": 11.582,
    "name": "Germany",
    "city": "Munich",
    "website": "https://conference.tum-blockchain.com/",
    "twitter": "https://twitter.com/tbc_munich",
    "logo": "Community%20Globe%20-%20Sheet1%20db0444fc12cd473fa31eb68dd6b6e6fd/tum.jpg",
    "pictures": "tum.jpg",
    "visible": "No"
  },
  {
    "text": "Michigan Blockchain",
    "region": "North America",
    "latitude": 44.3148,
    "longitude": -85.6024,
    "name": "USA",
    "city": "Michigan",
    "website": "https://www.michiganblockchain.org/",
    "twitter": "https://twitter.com/UMichBlockchain",
    "logo": "Community%20Globe%20-%20Sheet1%20db0444fc12cd473fa31eb68dd6b6e6fd/mich.jpg",
    "pictures": "mich.jpg",
    "visible": "No"
  },
  {
    "text": "USC Blockchain Club",
    "region": "North America",
    "latitude": 34.0549,
    "longitude": -118.2426,
    "name": "USA",
    "city": "Los Angeles",
    "website": "https://www.blockchainusc.com/",
    "twitter": null,
    "logo": "Community%20Globe%20-%20Sheet1%20db0444fc12cd473fa31eb68dd6b6e6fd/usc.svg",
    "pictures": "usc.svg",
    "visible": "No"
  },
  {
    "text": "Web3Afrika",
    "region": "Africa",
    "latitude": 9.082,
    "longitude": 8.6753,
    "name": "Nigeria",
    "city": null,
    "website": "https://www.web3afrika.com/",
    "twitter": "https://twitter.com/web3afrika",
    "logo": "Community%20Globe%20-%20Sheet1%20db0444fc12cd473fa31eb68dd6b6e6fd/web3afrika.jpg",
    "pictures": "web3afrika.jpg",
    "visible": "No"
  },
  {
    "text": "Web3Samaj",
    "region": "APAC",
    "latitude": 20.5937,
    "longitude": 78.9629,
    "name": "India",
    "city": null,
    "website": "https://www.web3samaj.com/",
    "twitter": "https://twitter.com/web3samaj",
    "logo": "Community%20Globe%20-%20Sheet1%20db0444fc12cd473fa31eb68dd6b6e6fd/web3samaj.jpg",
    "pictures": "web3samaj.jpg",
    "visible": "No"
  }
]
